{
  "type": "FeatureCollection",
  "features": [
    { "type": "Feature", "properties": { "STATE": "01", "NAME": "Araba/Álava" }, "geometry": { "type": "Polygon", "coordinates": [[[-2.38, 42.61], [-2.56, 42.48], [-3.05, 42.85], [-3.00, 43.14], [-2.38, 42.61]]] } },
    { "type": "Feature", "properties": { "STATE": "02", "NAME": "Albacete" }, "geometry": { "type": "Polygon", "coordinates": [[[-1.38, 38.38], [-2.37, 38.45], [-2.87, 39.12], [-1.09, 39.42], [-1.38, 38.38]]] } },
    { "type": "Feature", "properties": { "STATE": "03", "NAME": "Alicante/Alacant" }, "geometry": { "type": "Polygon", "coordinates": [[[-0.01, 38.85], [-0.53, 38.68], [-0.94, 38.01], [-0.51, 37.85], [-0.01, 38.85]]] } },
    { "type": "Feature", "properties": { "STATE": "04", "NAME": "Almería" }, "geometry": { "type": "Polygon", "coordinates": [[[-2.10, 37.38], [-2.50, 37.81], [-3.05, 36.68], [-2.15, 36.70], [-2.10, 37.38]]] } },
    { "type": "Feature", "properties": { "STATE": "05", "NAME": "Ávila" }, "geometry": { "type": "Polygon", "coordinates": [[[-4.51, 40.15], [-5.20, 40.10], [-5.50, 40.40], [-4.60, 41.10], [-4.51, 40.15]]] } },
    { "type": "Feature", "properties": { "STATE": "06", "NAME": "Badajoz" }, "geometry": { "type": "Polygon", "coordinates": [[[-5.92, 38.01], [-7.21, 38.25], [-7.40, 39.15], [-5.15, 39.30], [-5.92, 38.01]]] } },
    { "type": "Feature", "properties": { "STATE": "07", "NAME": "Illes Balears" }, "geometry": { "type": "Polygon", "coordinates": [[[2.39, 39.40], [3.45, 39.75], [4.30, 40.05], [3.80, 40.10], [2.39, 39.40]]] } },
    { "type": "Feature", "properties": { "STATE": "08", "NAME": "Barcelona" }, "geometry": { "type": "Polygon", "coordinates": [[[1.60, 41.35], [1.75, 42.20], [2.50, 41.90], [2.25, 41.30], [1.60, 41.35]]] } },
    { "type": "Feature", "properties": { "STATE": "09", "NAME": "Burgos" }, "geometry": { "type": "Polygon", "coordinates": [[[-3.25, 41.65], [-4.05, 41.85], [-3.85, 43.15], [-3.10, 42.85], [-3.25, 41.65]]] } },
    { "type": "Feature", "properties": { "STATE": "10", "NAME": "Cáceres" }, "geometry": { "type": "Polygon", "coordinates": [[[-5.80, 39.15], [-7.55, 39.55], [-6.90, 40.45], [-5.15, 40.25], [-5.80, 39.15]]] } },
    { "type": "Feature", "properties": { "STATE": "11", "NAME": "Cádiz" }, "geometry": { "type": "Polygon", "coordinates": [[[-5.30, 36.15], [-6.25, 36.45], [-6.45, 36.95], [-5.25, 37.05], [-5.30, 36.15]]] } },
    { "type": "Feature", "properties": { "STATE": "12", "NAME": "Castelló/Castellón" }, "geometry": { "type": "Polygon", "coordinates": [[[0.25, 40.00], [-0.55, 39.75], [-0.75, 40.75], [0.55, 40.55], [0.25, 40.00]]] } },
    { "type": "Feature", "properties": { "STATE": "13", "NAME": "Ciudad Real" }, "geometry": { "type": "Polygon", "coordinates": [[[-3.50, 38.45], [-5.05, 38.65], [-5.20, 39.55], [-2.85, 39.25], [-3.50, 38.45]]] } },
    { "type": "Feature", "properties": { "STATE": "14", "NAME": "Córdoba" }, "geometry": { "type": "Polygon", "coordinates": [[[-4.20, 37.35], [-5.45, 37.85], [-5.15, 38.75], [-4.05, 38.45], [-4.20, 37.35]]] } },
    { "type": "Feature", "properties": { "STATE": "15", "NAME": "A Coruña" }, "geometry": { "type": "Polygon", "coordinates": [[[-8.35, 42.45], [-9.35, 42.95], [-9.15, 43.85], [-7.85, 43.75], [-8.35, 42.45]]] } },
    { "type": "Feature", "properties": { "STATE": "16", "NAME": "Cuenca" }, "geometry": { "type": "Polygon", "coordinates": [[[-1.85, 39.25], [-3.15, 39.55], [-2.95, 40.75], [-1.45, 40.55], [-1.85, 39.25]]] } },
    { "type": "Feature", "properties": { "STATE": "17", "NAME": "Girona" }, "geometry": { "type": "Polygon", "coordinates": [[[2.80, 41.75], [2.45, 42.45], [3.35, 42.35], [3.15, 41.75], [2.80, 41.75]]] } },
    { "type": "Feature", "properties": { "STATE": "18", "NAME": "Granada" }, "geometry": { "type": "Polygon", "coordinates": [[[-3.15, 36.75], [-4.25, 36.85], [-4.15, 38.05], [-2.45, 38.15], [-3.15, 36.75]]] } },
    { "type": "Feature", "properties": { "STATE": "19", "NAME": "Guadalajara" }, "geometry": { "type": "Polygon", "coordinates": [[[-2.75, 40.45], [-3.55, 40.85], [-3.05, 41.45], [-1.75, 41.25], [-2.75, 40.45]]] } },
    { "type": "Feature", "properties": { "STATE": "20", "NAME": "Gipuzkoa" }, "geometry": { "type": "Polygon", "coordinates": [[[-2.15, 42.95], [-2.65, 43.35], [-1.75, 43.45], [-1.85, 42.95], [-2.15, 42.95]]] } },
    { "type": "Feature", "properties": { "STATE": "21", "NAME": "Huelva" }, "geometry": { "type": "Polygon", "coordinates": [[[-6.65, 36.85], [-7.55, 37.15], [-7.25, 38.15], [-6.35, 38.05], [-6.65, 36.85]]] } },
    { "type": "Feature", "properties": { "STATE": "22", "NAME": "Huesca" }, "geometry": { "type": "Polygon", "coordinates": [[[0.15, 41.55], [-0.75, 42.15], [-0.85, 42.95], [0.85, 42.75], [0.15, 41.55]]] } },
    { "type": "Feature", "properties": { "STATE": "23", "NAME": "Jaén" }, "geometry": { "type": "Polygon", "coordinates": [[[-3.15, 37.55], [-4.25, 37.85], [-4.15, 38.55], [-2.55, 38.45], [-3.15, 37.55]]] } },
    { "type": "Feature", "properties": { "STATE": "24", "NAME": "León" }, "geometry": { "type": "Polygon", "coordinates": [[[-5.45, 42.15], [-7.05, 42.45], [-6.95, 43.25], [-4.85, 43.15], [-5.45, 42.15]]] } },
    { "type": "Feature", "properties": { "STATE": "25", "NAME": "Lleida" }, "geometry": { "type": "Polygon", "coordinates": [[[0.65, 41.35], [0.15, 41.95], [0.75, 42.85], [1.75, 42.45], [0.65, 41.35]]] } },
    { "type": "Feature", "properties": { "STATE": "26", "NAME": "La Rioja" }, "geometry": { "type": "Polygon", "coordinates": [[[-2.35, 41.95], [-3.15, 42.45], [-2.55, 42.65], [-1.85, 42.15], [-2.35, 41.95]]] } },
    { "type": "Feature", "properties": { "STATE": "27", "NAME": "Lugo" }, "geometry": { "type": "Polygon", "coordinates": [[[-7.35, 42.45], [-7.95, 43.15], [-7.75, 43.85], [-6.95, 43.55], [-7.35, 42.45]]] } },
    { "type": "Feature", "properties": { "STATE": "28", "NAME": "Madrid" }, "geometry": { "type": "Polygon", "coordinates": [[[-3.67, 40.23], [-4.25, 40.25], [-3.95, 41.15], [-3.15, 40.75], [-3.67, 40.23]]] } },
    { "type": "Feature", "properties": { "STATE": "29", "NAME": "Málaga" }, "geometry": { "type": "Polygon", "coordinates": [[[-4.45, 36.45], [-5.55, 36.45], [-5.25, 37.15], [-3.85, 37.05], [-4.45, 36.45]]] } },
    { "type": "Feature", "properties": { "STATE": "30", "NAME": "Murcia" }, "geometry": { "type": "Polygon", "coordinates": [[[-1.25, 37.45], [-2.35, 37.65], [-2.15, 38.65], [-0.75, 38.25], [-1.25, 37.45]]] } },
    { "type": "Feature", "properties": { "STATE": "31", "NAME": "Navarra" }, "geometry": { "type": "Polygon", "coordinates": [[[-1.65, 42.15], [-2.45, 42.75], [-1.75, 43.35], [-0.75, 43.05], [-1.65, 42.15]]] } },
    { "type": "Feature", "properties": { "STATE": "32", "NAME": "Ourense" }, "geometry": { "type": "Polygon", "coordinates": [[[-7.65, 41.85], [-8.35, 42.15], [-8.15, 42.55], [-6.75, 42.45], [-7.65, 41.85]]] } },
    { "type": "Feature", "properties": { "STATE": "33", "NAME": "Asturias" }, "geometry": { "type": "Polygon", "coordinates": [[[-5.85, 43.05], [-7.25, 43.15], [-7.05, 43.75], [-4.55, 43.55], [-5.85, 43.05]]] } },
    { "type": "Feature", "properties": { "STATE": "34", "NAME": "Palencia" }, "geometry": { "type": "Polygon", "coordinates": [[[-4.55, 41.85], [-5.05, 42.15], [-4.95, 43.05], [-4.25, 42.95], [-4.55, 41.85]]] } },
    { "type": "Feature", "properties": { "STATE": "35", "NAME": "Las Palmas" }, "geometry": { "type": "Polygon", "coordinates": [[[-15.5, 27.8], [-15.9, 28.1], [-15.6, 28.4], [-15.2, 28.1], [-15.5, 27.8]]] } },
    { "type": "Feature", "properties": { "STATE": "36", "NAME": "Pontevedra" }, "geometry": { "type": "Polygon", "coordinates": [[[-8.55, 42.05], [-9.15, 42.25], [-8.85, 42.85], [-7.95, 42.75], [-8.55, 42.05]]] } },
    { "type": "Feature", "properties": { "STATE": "37", "NAME": "Salamanca" }, "geometry": { "type": "Polygon", "coordinates": [[[-5.85, 40.35], [-6.95, 40.45], [-6.75, 41.35], [-5.35, 41.15], [-5.85, 40.35]]] } },
    { "type": "Feature", "properties": { "STATE": "38", "NAME": "Santa Cruz de Tenerife" }, "geometry": { "type": "Polygon", "coordinates": [[[-16.5, 28.1], [-17.0, 28.4], [-16.7, 28.7], [-16.1, 28.4], [-16.5, 28.1]]] } },
    { "type": "Feature", "properties": { "STATE": "39", "NAME": "Cantabria" }, "geometry": { "type": "Polygon", "coordinates": [[[-4.05, 42.95], [-4.85, 43.15], [-4.65, 43.55], [-3.35, 43.45], [-4.05, 42.95]]] } },
    { "type": "Feature", "properties": { "STATE": "40", "NAME": "Segovia" }, "geometry": { "type": "Polygon", "coordinates": [[[-3.95, 40.85], [-4.65, 41.05], [-4.45, 41.55], [-3.35, 41.45], [-3.95, 40.85]]] } },
    { "type": "Feature", "properties": { "STATE": "41", "NAME": "Sevilla" }, "geometry": { "type": "Polygon", "coordinates": [[[-5.95, 37.15], [-6.55, 37.45], [-6.35, 38.25], [-5.15, 38.15], [-5.95, 37.15]]] } },
    { "type": "Feature", "properties": { "STATE": "42", "NAME": "Soria" }, "geometry": { "type": "Polygon", "coordinates": [[[-2.55, 41.35], [-3.15, 41.65], [-2.95, 42.15], [-1.85, 41.95], [-2.55, 41.35]]] } },
    { "type": "Feature", "properties": { "STATE": "43", "NAME": "Tarragona" }, "geometry": { "type": "Polygon", "coordinates": [[[1.15, 40.65], [0.35, 40.75], [0.75, 41.45], [1.65, 41.35], [1.15, 40.65]]] } },
    { "type": "Feature", "properties": { "STATE": "44", "NAME": "Teruel" }, "geometry": { "type": "Polygon", "coordinates": [[[-0.85, 40.05], [-1.65, 40.25], [-1.45, 41.35], [0.15, 41.15], [-0.85, 40.05]]] } },
    { "type": "Feature", "properties": { "STATE": "45", "NAME": "Toledo" }, "geometry": { "type": "Polygon", "coordinates": [[[-4.05, 39.55], [-5.45, 39.85], [-4.85, 40.35], [-3.35, 40.15], [-4.05, 39.55]]] } },
    { "type": "Feature", "properties": { "STATE": "46", "NAME": "València/Valencia" }, "geometry": { "type": "Polygon", "coordinates": [[[-0.45, 38.95], [-1.45, 39.25], [-1.15, 40.15], [-0.15, 39.75], [-0.45, 38.95]]] } },
    { "type": "Feature", "properties": { "STATE": "47", "NAME": "Valladolid" }, "geometry": { "type": "Polygon", "coordinates": [[[-4.75, 41.25], [-5.55, 41.45], [-5.35, 42.35], [-4.15, 42.15], [-4.75, 41.25]]] } },
    { "type": "Feature", "properties": { "STATE": "48", "NAME": "Bizkaia" }, "geometry": { "type": "Polygon", "coordinates": [[[-2.85, 43.15], [-3.45, 43.45], [-2.55, 43.55], [-2.65, 43.15], [-2.85, 43.15]]] } },
    { "type": "Feature", "properties": { "STATE": "49", "NAME": "Zamora" }, "geometry": { "type": "Polygon", "coordinates": [[[-5.75, 41.25], [-7.05, 41.45], [-6.85, 42.35], [-5.25, 42.15], [-5.75, 41.25]]] } },
    { "type": "Feature", "properties": { "STATE": "50", "NAME": "Zaragoza" }, "geometry": { "type": "Polygon", "coordinates": [[[-1.15, 41.15], [-2.15, 41.35], [-1.95, 42.35], [0.15, 41.65], [-1.15, 41.15]]] } },
    { "type": "Feature", "properties": { "STATE": "51", "NAME": "Ceuta" }, "geometry": { "type": "Polygon", "coordinates": [[[-5.32, 35.88], [-5.35, 35.90], [-5.28, 35.92], [-5.32, 35.88]]] } },
    { "type": "Feature", "properties": { "STATE": "52", "NAME": "Melilla" }, "geometry": { "type": "Polygon", "coordinates": [[[-2.94, 35.28], [-2.96, 35.30], [-2.92, 35.31], [-2.94, 35.28]]] } }
  ]
}
